City_ID,City,Lat,Lng,Max Temp,Humidity,Cloudiness,Wind Speed,Country,Date
0,jiexiu,37.0244,111.9125,294.99,97,100,2.38,CN,2023-07-30
1,skibbereen,51.55,-9.2667,288.77,92,97,8.98,IE,2023-07-30
2,rikitea,-23.1203,-134.9692,293.85,65,87,11.39,PF,2023-07-30
3,cherskiy,68.75,161.3,278.26,97,100,0.99,RU,2023-07-30
4,teahupoo,-17.8333,-149.2667,294.13,79,96,8.24,PF,2023-07-30
5,neftcala,39.3742,49.2472,301.38,51,83,4.98,AZ,2023-07-30
6,new philadelphia,40.4898,-81.4457,289.74,96,17,0.45,US,2023-07-30
7,tuktoyaktuk,69.4541,-133.0374,286.11,69,0,5.84,CA,2023-07-30
8,tongren,27.7172,109.1853,301.16,86,69,1.26,CN,2023-07-30
9,cabo san lucas,22.8909,-109.9124,303.43,70,0,5.39,MX,2023-07-30
10,mataura,-46.1927,168.8643,281.19,97,12,1.81,NZ,2023-07-30
11,san andres,12.5847,-81.7006,301.16,83,40,5.66,CO,2023-07-30
12,latung,5.5,120.8833,301.37,82,41,5.23,PH,2023-07-30
13,simi,9.5667,-12.35,298.68,90,100,1.63,SL,2023-07-30
14,busselton,-33.65,115.3333,287.96,70,98,2.98,AU,2023-07-30
15,punta arenas,-53.15,-70.9167,273.51,73,29,5.9,CL,2023-07-30
16,champerico,14.3,-91.9167,298.6,82,97,2.16,GT,2023-07-30
17,lebu,-37.6167,-73.65,284.84,93,92,2.1,CL,2023-07-30
18,atuona,-9.8,-139.0333,299.2,71,52,11.72,PF,2023-07-30
19,pacsa,46.7198,17.014,293.81,88,20,2.06,HU,2023-07-30
20,provideniya,64.3833,-173.3,281.98,98,100,3.72,RU,2023-07-30
21,carnarvon,-24.8667,113.6333,291.89,54,0,5.58,AU,2023-07-30
22,tiksi,71.6872,128.8694,275.06,89,45,4.58,RU,2023-07-30
23,sur,22.5667,59.5289,311.05,45,7,3.41,OM,2023-07-30
24,dapaong,10.8639,0.205,302.87,60,100,4.56,TG,2023-07-30
25,albany,42.6001,-73.9662,287.82,86,45,2.68,US,2023-07-30
26,venado tuerto,-33.7456,-61.9688,280.8,57,88,3.47,AR,2023-07-30
27,mbandaka,0.0487,18.2603,304.37,49,37,0.95,CD,2023-07-30
28,kemijarvi,66.7131,27.4306,287.46,93,100,1.64,FI,2023-07-30
29,gorontalo,0.5412,123.0595,298.26,85,100,2.33,ID,2023-07-30
30,qaanaaq,77.484,-69.3632,280.03,84,90,0.17,GL,2023-07-30
31,vilhena,-12.7406,-60.1458,291.27,82,0,4.12,BR,2023-07-30
32,hilo,19.7297,-155.09,299.97,89,76,2.68,US,2023-07-30
33,khatanga,71.9667,102.5,302.56,30,7,4.99,RU,2023-07-30
34,leningradskiy,69.3833,178.4167,278.85,91,100,1.59,RU,2023-07-30
35,butaritari,3.0707,172.7902,301.47,79,91,3.03,KI,2023-07-30
36,upernavik,72.7868,-56.1549,276.65,88,50,3.07,GL,2023-07-30
37,bathsheba,13.2167,-59.5167,298.49,94,40,4.63,BB,2023-07-30
38,reyes,-14.3167,-67.3833,292.16,87,68,0.94,BO,2023-07-30
39,thompson,55.7435,-97.8558,286.24,94,100,2.57,CA,2023-07-30
40,palana,59.1167,159.9667,282.89,68,99,3.04,RU,2023-07-30
41,shingu,33.7333,135.9833,299.46,91,81,1.01,JP,2023-07-30
42,cidreira,-30.1811,-50.2056,285.43,82,3,4.37,BR,2023-07-30
43,hualmay,-11.0964,-77.6139,291.28,85,56,2.41,PE,2023-07-30
44,vaini,-21.2,-175.2,292.24,82,20,3.09,TO,2023-07-30
45,port alfred,-33.5906,26.891,287.14,63,80,7.15,ZA,2023-07-30
46,longyearbyen,78.2186,15.6401,283.06,62,75,4.63,SJ,2023-07-30
47,moree,-29.4667,149.85,290.34,52,59,3.17,AU,2023-07-30
48,gat,31.61,34.7642,307.26,100,0,6.66,IL,2023-07-30
49,benguela,-12.5763,13.4055,296.75,66,38,4.16,AO,2023-07-30
50,dikson,73.5069,80.5464,275.22,98,100,6.3,RU,2023-07-30
51,faanui,-16.4833,-151.75,300.14,69,99,7.02,PF,2023-07-30
52,bluff,-46.6,168.3333,281.37,83,58,7.01,NZ,2023-07-30
53,biskamzha,53.4497,89.5272,296.72,52,74,3.47,RU,2023-07-30
54,margate,51.3813,1.3862,295.2,52,43,4.02,GB,2023-07-30
55,kapaa,22.0752,-159.319,299.33,89,75,6.17,US,2023-07-30
56,moussoro,13.6408,16.4901,310.89,31,31,7.04,TD,2023-07-30
57,alofi,-19.0595,-169.9187,293.09,94,100,4.12,NU,2023-07-30
58,kommunisticheskiy,61.6789,64.4819,299.49,39,1,2.79,RU,2023-07-30
59,storslett,69.7678,21.0247,287.15,82,75,4.12,NO,2023-07-30
60,jamestown,42.097,-79.2353,287.85,100,3,0.95,US,2023-07-30
61,port elizabeth,-33.918,25.5701,287.31,67,20,15.95,ZA,2023-07-30
62,san policarpo,12.1791,125.5072,301.18,76,100,3.56,PH,2023-07-30
63,manbij,36.5281,37.9549,310.92,21,0,7.09,SY,2023-07-30
64,katsuura,35.1333,140.3,300.06,85,7,7.36,JP,2023-07-30
65,samfya,-11.3649,29.5565,302.68,17,8,1.1,ZM,2023-07-30
66,batemans bay,-35.7167,150.1833,287.65,60,0,3.1,AU,2023-07-30
67,biak,-0.9131,122.8766,297.87,83,100,2.94,ID,2023-07-30
68,san cristobal,7.7669,-72.225,297.25,95,64,2.19,VE,2023-07-30
69,hobart,-42.8794,147.3294,282.74,71,20,5.14,AU,2023-07-30
70,mahebourg,-20.4081,57.7,298.85,63,5,5.18,MU,2023-07-30
71,castro,-24.7911,-50.0119,282.4,92,86,1.44,BR,2023-07-30
72,hithadhoo,-0.6,73.0833,300.94,73,70,2.63,MV,2023-07-30
73,mvomero,-6.25,38.6667,303.28,44,59,2.7,TZ,2023-07-30
74,casablanca,33.5928,-7.6192,304.27,63,1,3.79,MA,2023-07-30
75,cavalcante,-13.7975,-47.4583,297.24,40,22,2.14,BR,2023-07-30
76,lewisporte,49.2499,-55.0482,288.99,95,100,2.32,CA,2023-07-30
77,road town,18.4167,-64.6167,301.52,76,66,7.44,VG,2023-07-30
78,gondar,12.6,37.4667,294.43,68,96,2.41,ET,2023-07-30
79,nikolskoye,59.7035,30.7861,297.09,40,30,3.12,RU,2023-07-30
80,mount isa,-20.7333,139.5,290.02,55,55,2.57,AU,2023-07-30
81,puerto ayora,-0.7393,-90.3518,296.23,97,51,3.22,EC,2023-07-30
82,yima,34.7381,111.8839,300.34,75,75,2.43,CN,2023-07-30
83,ushuaia,-54.8,-68.3,272.96,74,20,9.26,AR,2023-07-30
84,avarua,-21.2078,-159.775,296.18,100,75,2.06,CK,2023-07-30
85,nikolayevsk-na-amure,53.1406,140.73,288.72,98,100,1.62,RU,2023-07-30
86,grindavik,63.8424,-22.4338,285.41,87,100,4.63,IS,2023-07-30
87,saskylakh,71.9167,114.0833,295.98,34,7,5.01,RU,2023-07-30
88,vao,-22.6667,167.4833,292.1,74,19,7.51,NC,2023-07-30
89,caravelas,-17.7125,-39.2481,294.85,88,100,5.32,BR,2023-07-30
90,talnakh,69.4865,88.3972,296.04,65,96,0.31,RU,2023-07-30
91,cape town,-33.9258,18.4232,287.64,61,66,3.13,ZA,2023-07-30
92,brae,60.3964,-1.353,288.63,79,66,0.97,GB,2023-07-30
93,severo-kurilsk,50.6789,156.125,284.24,98,100,5.62,RU,2023-07-30
94,mount gambier,-37.8333,140.7667,281.62,78,19,3.4,AU,2023-07-30
95,manaus,-3.1019,-60.025,300.42,74,0,2.06,BR,2023-07-30
96,churu,28.3,74.95,308.84,43,51,6.26,IN,2023-07-30
97,sao filipe,14.8961,-24.4956,298.36,77,83,2.18,CV,2023-07-30
98,hambantota,6.1241,81.1185,308.34,52,20,7.2,LK,2023-07-30
99,nabire,-3.3667,135.4833,298.06,88,98,1.34,ID,2023-07-30
100,birin,26.8865,88.0718,295.89,82,81,1.25,NP,2023-07-30
101,muros,42.7762,-9.0603,296.95,62,41,3.82,ES,2023-07-30
102,mossendjo,-2.9506,12.7261,303.73,41,14,2.15,CG,2023-07-30
103,saldanha,-33.0117,17.9442,286.24,56,46,5.69,ZA,2023-07-30
104,maceio,-9.6658,-35.7353,298.04,82,22,3.09,BR,2023-07-30
105,mar del plata,-38.0023,-57.5575,284.87,79,100,1.79,AR,2023-07-30
106,chuy,-33.6971,-53.4616,280.28,91,89,2.83,UY,2023-07-30
107,de-kastri,51.4667,140.7833,289.61,99,100,1.99,RU,2023-07-30
108,new norfolk,-42.7826,147.0587,282.55,70,51,5.41,AU,2023-07-30
109,east london,-33.0153,27.9116,289.67,41,0,14.4,ZA,2023-07-30
110,koslan,63.4564,48.8989,304.64,40,23,4.89,RU,2023-07-30
111,bredasdorp,-34.5322,20.0403,285.48,62,65,9.88,ZA,2023-07-30
112,tasiilaq,65.6145,-37.6368,277.58,80,87,0.8,GL,2023-07-30
113,la asuncion,11.0333,-63.8628,298.9,87,100,7.9,VE,2023-07-30
114,klaksvik,62.2266,-6.589,288.66,94,97,3.88,FO,2023-07-30
115,norman wells,65.282,-126.8329,288.93,72,0,1.58,CA,2023-07-30
116,broken hill,-31.95,141.4333,286.4,53,0,4.06,AU,2023-07-30
117,chiang klang,19.2938,100.8617,298.21,99,100,1.13,TH,2023-07-30
118,ribeira grande,38.5167,-28.7,297.37,88,75,2.06,PT,2023-07-30
119,san patricio,28.017,-97.5169,301.4,90,1,1.73,US,2023-07-30
120,altay,47.8667,88.1167,302.66,23,0,3.82,CN,2023-07-30
121,barrow,71.2906,-156.7887,284.16,93,0,3.09,US,2023-07-30
122,cartagena,10.3997,-75.5144,299.4,87,7,2.42,CO,2023-07-30
123,skelleftea,64.7507,20.9528,294.35,52,76,1.54,SE,2023-07-30
124,fremont,37.5483,-121.9886,289.22,86,40,2.57,US,2023-07-30
125,lata,40.1629,-8.3327,301.2,47,7,3.33,PT,2023-07-30
126,manokwari,-0.8667,134.0833,300.31,69,100,5.02,ID,2023-07-30
127,vila franca do campo,37.7167,-25.4333,296.38,64,19,1.62,PT,2023-07-30
128,saint george,37.1041,-113.5841,299.48,42,0,4.63,US,2023-07-30
129,preeceville,51.95,-102.6677,283.45,70,0,1.74,CA,2023-07-30
130,yulara,-25.2406,130.9889,293.08,36,5,4.16,AU,2023-07-30
131,mitu,1.1983,-70.1733,294.69,98,94,0.97,CO,2023-07-30
132,anloga,5.7947,0.8973,299.29,80,94,4.55,GH,2023-07-30
133,nouadhibou,20.931,-17.0347,293.9,90,66,6.51,MR,2023-07-30
134,college,64.8569,-147.8028,288.75,86,80,0.45,US,2023-07-30
135,gobabis,-22.45,18.9667,285.58,26,6,5.78,NA,2023-07-30
136,hermanus,-34.4187,19.2345,285.82,65,77,10.5,ZA,2023-07-30
137,semiletka,55.3603,54.6153,306.23,29,95,5.58,RU,2023-07-30
138,wattegama,6.7989,81.4808,307.9,39,96,3.58,LK,2023-07-30
139,souillac,-20.5167,57.5167,296.65,62,9,4.76,MU,2023-07-30
140,coquimbo,-29.9533,-71.3436,286.05,92,65,0.86,CL,2023-07-30
141,san luis,-33.295,-66.3356,285.87,43,99,2.21,AR,2023-07-30
142,andenes,69.3143,16.1194,287.0,88,20,8.23,NO,2023-07-30
143,tosya,41.0155,34.0401,300.2,29,0,2.72,TR,2023-07-30
144,harper,4.375,-7.7169,299.04,81,100,3.63,LR,2023-07-30
145,belmonte,-15.8631,-38.8828,295.33,84,100,2.76,BR,2023-07-30
146,riyadh,24.6877,46.7219,316.85,7,0,3.88,SA,2023-07-30
147,honningsvag,70.9821,25.9704,284.01,100,100,4.12,NO,2023-07-30
148,namatanai,-3.6667,152.4333,299.65,83,100,2.22,PG,2023-07-30
149,namibe,-15.1961,12.1522,296.39,49,16,3.92,AO,2023-07-30
150,mineiros,-17.5694,-52.5511,291.0,65,5,1.63,BR,2023-07-30
151,abdulino,53.7,53.6667,300.74,42,88,4.88,RU,2023-07-30
152,ponta do sol,32.6667,-17.1,301.88,65,0,0.57,PT,2023-07-30
153,hamilton,39.1834,-84.5333,295.32,92,20,0.0,US,2023-07-30
154,calama,-22.4667,-68.9333,283.9,18,0,3.97,CL,2023-07-30
155,bubaque,11.2833,-15.8333,298.14,91,100,8.04,GW,2023-07-30
156,burnie,-41.0667,145.9167,281.73,67,35,6.3,AU,2023-07-30
157,martapura,-3.4167,114.85,302.2,65,20,3.6,ID,2023-07-30
158,victoria,22.2855,114.1577,303.33,89,100,0.89,HK,2023-07-30
159,ilulissat,69.2167,-51.1,279.16,93,75,0.51,GL,2023-07-30
160,lagoa,39.05,-27.9833,295.63,86,67,4.36,PT,2023-07-30
161,bandarbeyla,9.4942,50.8122,300.71,67,39,14.87,SO,2023-07-30
162,saint-philippe,-21.3585,55.7679,296.92,71,23,4.81,RE,2023-07-30
163,vostok,46.4856,135.8833,290.68,94,33,1.84,RU,2023-07-30
164,torbay,47.6666,-52.7314,291.58,91,100,2.57,CA,2023-07-30
165,srednekolymsk,67.45,153.6833,279.98,73,26,3.99,RU,2023-07-30
166,marevo,57.3146,32.0804,297.24,37,10,1.91,RU,2023-07-30
167,pangoa,-12.1167,-73.0,291.85,88,96,1.26,PE,2023-07-30
168,beloha,-25.1667,45.05,302.34,21,25,2.6,MG,2023-07-30
169,hami,42.8,93.45,306.03,19,100,5.45,CN,2023-07-30
170,gaoua,10.2992,-3.2508,301.81,64,57,2.89,BF,2023-07-30
171,bambous virieux,-20.3428,57.7575,298.83,60,75,4.12,MU,2023-07-30
172,rong kwang,18.339,100.3174,298.75,94,100,1.83,TH,2023-07-30
173,pisco,-13.7,-76.2167,291.49,81,15,0.47,PE,2023-07-30
174,itarema,-2.9248,-39.9167,300.39,72,14,6.83,BR,2023-07-30
175,atasu,48.6814,71.6433,306.9,23,61,3.8,KZ,2023-07-30
176,garden city,42.3256,-83.331,292.05,87,75,2.06,US,2023-07-30
177,teya,60.3778,92.6267,291.49,96,100,2.32,RU,2023-07-30
178,mahanoro,-19.9,48.8,297.45,57,0,3.86,MG,2023-07-30
179,seymchan,62.8833,152.4333,286.65,54,84,3.72,RU,2023-07-30
180,arraial do cabo,-22.9661,-42.0278,292.07,82,75,1.03,BR,2023-07-30
181,georgetown,5.4112,100.3354,304.12,74,20,4.63,MY,2023-07-30
182,bang saphan,11.2126,99.5117,302.57,68,46,4.83,TH,2023-07-30
183,yarada,17.65,83.2667,306.33,58,75,4.12,IN,2023-07-30
184,atikokan,48.7555,-91.6216,283.42,77,30,1.95,CA,2023-07-30
185,viedma,-40.8135,-62.9967,286.13,56,100,6.29,AR,2023-07-30
186,kahului,20.8947,-156.47,298.62,73,14,2.68,US,2023-07-30
187,ilawe,7.8667,4.4333,297.85,88,100,2.52,NG,2023-07-30
188,vardo,70.3705,31.1107,285.14,94,100,3.6,NO,2023-07-30
189,kodiak,57.79,-152.4072,284.43,89,20,2.61,US,2023-07-30
190,paamiut,61.994,-49.6678,277.74,92,64,6.68,GL,2023-07-30
191,hasaki,35.7333,140.8333,303.88,84,0,7.76,JP,2023-07-30
192,liku,-0.7275,119.8922,297.6,88,27,0.54,ID,2023-07-30
193,salalah,17.0151,54.0924,298.93,85,91,4.3,OM,2023-07-30
194,barcelos,41.5388,-8.6151,297.42,46,0,3.56,PT,2023-07-30
195,ostrovnoy,68.0531,39.5131,290.36,74,76,3.71,RU,2023-07-30
196,fortuna,40.5982,-124.1573,288.34,100,100,0.0,US,2023-07-30
197,sechura,-5.5569,-80.8222,293.47,85,30,4.03,PE,2023-07-30
198,clyde river,70.4692,-68.5914,277.9,73,100,0.64,CA,2023-07-30
199,sompeta,18.9333,84.6,306.4,65,100,2.91,IN,2023-07-30
200,ucluelet,48.9329,-125.5528,285.42,92,3,1.3,CA,2023-07-30
201,iqaluit,63.7506,-68.5145,276.63,94,92,1.12,CA,2023-07-30
202,bethel,41.3712,-73.414,290.38,83,4,0.45,US,2023-07-30
203,luderitz,-26.6481,15.1594,288.32,41,0,8.05,NA,2023-07-30
204,ballina,-28.8667,153.5667,289.14,79,24,4.93,AU,2023-07-30
205,severnyy,50.677,36.5532,296.17,53,0,4.02,RU,2023-07-30
206,hovd,48.0056,91.6419,299.69,23,20,2.84,MN,2023-07-30
207,suntar,62.1444,117.6319,296.42,55,64,2.08,RU,2023-07-30
208,bontang,0.1333,117.5,300.6,80,48,5.3,ID,2023-07-30
209,cooma,-36.2333,149.1333,279.25,71,0,3.14,AU,2023-07-30
210,buta,2.7858,24.73,306.78,43,42,1.85,CD,2023-07-30
211,shunyi,40.125,116.6453,296.12,100,75,5.0,CN,2023-07-30
212,gornopravdinsk,60.05,69.9,293.9,79,91,3.43,RU,2023-07-30
213,rafiganj,24.8167,84.65,303.23,51,97,3.01,IN,2023-07-30
214,half moon bay,37.4636,-122.4286,288.21,90,100,4.12,US,2023-07-30
215,abilene,32.4487,-99.7331,298.19,51,1,3.15,US,2023-07-30
216,alindao,5.0267,21.2088,303.54,63,61,2.02,CF,2023-07-30
217,ancud,-41.8697,-73.8203,283.03,94,29,5.32,CL,2023-07-30
218,sioni,41.9895,45.0239,292.35,97,100,1.39,GE,2023-07-30
219,kamenka,51.3223,42.7678,296.77,49,5,7.7,RU,2023-07-30
220,kosonsoy,41.2561,71.5508,307.46,14,3,5.53,UZ,2023-07-30
221,komsomolskiy,40.4272,71.7189,309.55,23,0,3.09,UZ,2023-07-30
222,shirgaon,19.7,72.7,301.1,80,30,8.13,IN,2023-07-30
223,noumea,-22.2763,166.4572,289.14,75,18,3.08,NC,2023-07-30
224,placido de castro,-10.3353,-67.1856,293.53,77,64,1.19,BR,2023-07-30
225,stranda,62.3096,6.9358,292.34,92,100,3.11,NO,2023-07-30
226,narrabri,-30.3167,149.7833,290.11,65,92,0.53,AU,2023-07-30
227,soure,-0.7167,-48.5233,300.91,78,0,6.57,BR,2023-07-30
228,lipari,38.4674,14.954,304.44,64,0,1.56,IT,2023-07-30
229,esmeraldas,-19.7625,-44.3139,291.66,75,3,4.08,BR,2023-07-30
230,kindu,-2.95,25.95,311.51,24,23,0.98,CD,2023-07-30
231,nome,64.5011,-165.4064,282.13,99,100,2.16,US,2023-07-30
232,talara,-4.5772,-81.2719,293.95,84,32,6.49,PE,2023-07-30
233,inirida,3.8653,-67.9239,295.85,98,94,0.23,CO,2023-07-30
234,ahipara,-35.1667,173.1667,280.27,87,4,0.96,NZ,2023-07-30
235,sulangan,11.1373,123.7228,302.1,76,100,6.36,PH,2023-07-30
236,parintins,-2.6283,-56.7358,298.83,73,11,1.36,BR,2023-07-30
237,marawi,7.9986,124.2928,294.53,88,95,2.53,PH,2023-07-30
238,churapcha,62.0025,132.4325,291.56,57,41,2.12,RU,2023-07-30
239,emba,48.8264,58.1442,309.68,20,79,5.13,KZ,2023-07-30
240,nhulunbuy,-12.2333,136.7667,296.49,88,84,3.6,AU,2023-07-30
241,chaozhou,23.6651,116.6379,300.19,88,97,2.22,CN,2023-07-30
242,ambon,-3.6954,128.1814,301.97,95,90,3.09,ID,2023-07-30
243,huanren,41.2647,125.3667,295.23,98,100,1.13,CN,2023-07-30
244,soyo,-6.1349,12.3689,296.56,69,30,4.35,AO,2023-07-30
245,albion,42.2431,-84.753,291.13,88,0,0.0,US,2023-07-30
246,salta,-24.7859,-65.4117,283.87,55,0,1.17,AR,2023-07-30
247,otane,-39.8833,176.6333,276.49,95,2,1.04,NZ,2023-07-30
248,santa rosalia,27.3167,-112.2833,301.78,71,90,3.01,MX,2023-07-30
249,geraldton,-28.7667,114.6,287.38,88,18,3.09,AU,2023-07-30
250,killybegs,54.6333,-8.45,288.99,80,96,6.3,IE,2023-07-30
251,boa vista,2.8197,-60.6733,297.14,88,75,0.51,BR,2023-07-30
252,saryg-sep,51.5,95.6,301.81,31,0,2.77,RU,2023-07-30
253,hedaru,-4.5,37.9,301.97,41,72,3.98,TZ,2023-07-30
254,buala,-8.145,159.5921,299.29,87,100,4.05,SB,2023-07-30
255,sioux lookout,50.1001,-91.917,284.53,77,77,2.44,CA,2023-07-30
256,valparaiso,-33.0393,-71.6273,288.15,67,100,3.22,CL,2023-07-30
257,yomou,7.5603,-9.2653,295.75,90,100,0.88,GN,2023-07-30
258,kudahuvadhoo,2.6708,72.8944,301.27,74,100,3.35,MV,2023-07-30
259,puro,12.4841,123.3827,301.11,77,100,8.47,PH,2023-07-30
260,yellowknife,62.456,-114.3525,287.22,89,42,1.68,CA,2023-07-30
261,greifswald,54.1,13.3833,295.97,100,71,5.95,DE,2023-07-30
262,benjamin constant,-4.3831,-70.0311,293.4,78,28,0.51,BR,2023-07-30
263,abay,49.6311,72.8539,305.36,28,72,5.35,KZ,2023-07-30
264,cururupu,-1.8283,-44.8683,299.66,83,6,2.74,BR,2023-07-30
265,umm lajj,25.0213,37.2685,305.67,66,25,5.19,SA,2023-07-30
266,erenhot,43.6475,111.9767,307.37,22,1,7.4,CN,2023-07-30
267,zinder,13.8072,8.9881,308.37,36,29,6.61,NE,2023-07-30
268,grand gaube,-20.0064,57.6608,298.92,61,5,3.13,MU,2023-07-30
269,pirgos,35.1167,25.7178,303.72,43,0,6.16,GR,2023-07-30
270,rize,40.9044,40.8949,288.05,79,61,1.74,TR,2023-07-30
271,sinnamary,5.3833,-52.95,299.12,87,23,4.12,GF,2023-07-30
272,plettenberg bay,-34.0527,23.3716,285.67,64,92,10.32,ZA,2023-07-30
273,zaraza,9.3503,-65.3245,296.16,98,84,0.75,VE,2023-07-30
274,urumqi,43.801,87.6005,300.68,28,0,3.0,CN,2023-07-30
275,hit,33.6416,42.8251,317.19,7,0,6.22,IQ,2023-07-30
276,sishui,35.6489,117.2758,299.66,90,91,4.85,CN,2023-07-30
277,puerto escondido,15.85,-97.0667,300.08,81,100,1.89,MX,2023-07-30
278,kemerovo,55.3333,86.0833,296.98,73,40,3.13,RU,2023-07-30
279,rocha,-34.4833,-54.3333,279.69,83,54,2.96,UY,2023-07-30
280,tura,25.5198,90.2201,304.1,74,87,0.44,IN,2023-07-30
281,alta floresta,-9.8756,-56.0861,293.96,47,35,1.43,BR,2023-07-30
282,sattahip,12.6664,100.9007,305.36,74,75,5.14,TH,2023-07-30
283,pyaozerskiy,65.8333,31.1667,290.03,80,97,4.15,RU,2023-07-30
284,eregli,37.5133,34.0467,303.71,15,0,3.27,TR,2023-07-30
285,tsaratanana,-16.7833,47.65,303.36,35,1,2.3,MG,2023-07-30
286,bengkulu,-3.8004,102.2655,299.35,86,87,4.6,ID,2023-07-30
287,cap malheureux,-19.9842,57.6142,298.97,61,4,3.13,MU,2023-07-30
288,khor,47.8861,134.9464,293.89,90,38,2.92,RU,2023-07-30
289,pevek,69.7008,170.3133,275.32,98,100,3.14,RU,2023-07-30
290,nalut,30.3333,10.85,317.22,7,0,4.28,LY,2023-07-30
291,anadyr,64.75,177.4833,286.43,82,75,5.0,RU,2023-07-30
292,thinadhoo,0.5333,72.9333,300.23,79,97,2.29,MV,2023-07-30
293,hobyo,5.3505,48.5268,300.27,70,21,12.67,SO,2023-07-30
294,nizhneangarsk,55.7833,109.55,287.45,93,100,1.19,RU,2023-07-30
295,verkhnyaya inta,65.9811,60.3094,300.69,37,8,2.07,RU,2023-07-30
296,airai,-8.9266,125.4092,287.64,91,66,1.55,TL,2023-07-30
297,the valley,18.217,-63.0578,302.09,78,93,6.8,AI,2023-07-30
298,udomlya,57.8794,34.9925,294.87,46,43,3.42,RU,2023-07-30
299,isangel,-19.55,169.2667,292.42,71,43,4.78,VU,2023-07-30
300,deputatskiy,69.3,139.9,275.89,92,100,2.43,RU,2023-07-30
301,broome,42.2506,-75.833,288.16,89,75,1.54,US,2023-07-30
302,matara,5.9485,80.5353,301.84,74,69,6.89,LK,2023-07-30
303,botou,38.0667,116.5667,299.85,87,100,5.85,CN,2023-07-30
304,katherine,-14.4667,132.2667,297.33,50,56,1.54,AU,2023-07-30
305,vuktyl,63.8567,57.3094,302.05,33,100,2.7,RU,2023-07-30
306,kaitangata,-46.2817,169.8464,278.32,86,27,2.4,NZ,2023-07-30
307,lethem,3.3803,-59.7968,297.35,89,22,2.1,GY,2023-07-30
308,launceston,-41.45,147.1667,281.95,76,43,7.72,AU,2023-07-30
309,huarmey,-10.0681,-78.1522,292.02,86,58,2.67,PE,2023-07-30
310,bombay,19.0144,72.8479,302.14,89,75,3.6,IN,2023-07-30
311,neuenkirchen,52.2447,7.3718,293.63,73,91,2.24,DE,2023-07-30
312,almeirim,-1.5233,-52.5817,298.56,81,53,2.23,BR,2023-07-30
313,richards bay,-28.783,32.0377,294.39,45,71,3.71,ZA,2023-07-30
314,meylan,45.2199,5.7901,302.01,79,80,2.66,FR,2023-07-30
315,gijon,43.5357,-5.6615,295.84,73,98,4.92,ES,2023-07-30
316,guerrero negro,27.9769,-114.0611,294.3,75,65,4.11,MX,2023-07-30
317,yumen,40.2833,97.2,301.08,24,78,12.29,CN,2023-07-30
318,sicuani,-14.2694,-71.2261,277.03,87,44,0.38,PE,2023-07-30
319,tomatlan,19.9333,-105.25,296.79,84,5,1.1,MX,2023-07-30
320,goderich,43.7501,-81.7165,293.1,72,58,7.23,CA,2023-07-30
321,khasan,42.4308,130.6434,297.68,83,100,2.37,RU,2023-07-30
322,ponta delgada,37.7333,-25.6667,296.55,83,20,3.09,PT,2023-07-30
323,portland,45.5234,-122.6762,289.6,78,0,0.45,US,2023-07-30
324,miyoshi,35.0833,137.0667,303.63,71,16,4.03,JP,2023-07-30
325,baherden,38.4362,57.4316,312.33,18,0,3.34,TM,2023-07-30
326,maldonado,-34.6667,-54.9167,283.23,81,62,2.71,UY,2023-07-30
327,vestmannaeyjar,63.4427,-20.2734,284.7,82,100,6.69,IS,2023-07-30
328,novobirilyussy,56.9514,90.6661,295.54,83,81,1.74,RU,2023-07-30
329,touros,-5.1989,-35.4608,298.75,80,90,5.59,BR,2023-07-30
330,mazatlan,23.2167,-106.4167,300.32,89,4,1.34,MX,2023-07-30
331,colares,38.7992,-9.4469,300.56,61,20,6.69,PT,2023-07-30
332,aklavik,68.2191,-135.0107,290.46,56,5,3.18,CA,2023-07-30
333,tucuman,-26.8241,-65.2226,285.26,64,0,1.44,AR,2023-07-30
334,kiama,-34.6833,150.8667,290.93,56,0,5.81,AU,2023-07-30
335,ayr,55.4627,-4.6339,288.88,88,75,8.75,GB,2023-07-30
336,anchorage,61.2181,-149.9003,288.67,96,100,0.0,US,2023-07-30
337,shklo,49.9567,23.5441,297.03,55,100,4.56,UA,2023-07-30
338,barcelona,41.3888,2.159,304.92,64,75,3.09,ES,2023-07-30
339,masuguru,-11.3667,38.4167,306.16,24,0,1.58,TZ,2023-07-30
340,zhigansk,66.7697,123.3711,288.1,43,23,8.27,RU,2023-07-30
341,japura,-0.3167,102.35,300.49,79,81,1.38,ID,2023-07-30
342,codrington,-38.2667,141.9667,280.4,86,9,4.23,AU,2023-07-30
343,sao joao da barra,-21.6403,-41.0511,292.44,76,100,2.57,BR,2023-07-30
344,kidal,18.4411,1.4078,311.48,25,41,5.69,ML,2023-07-30
345,khani,41.9563,42.9566,292.91,61,48,2.74,GE,2023-07-30
346,sheridan,44.8333,-106.9173,289.36,72,0,0.0,US,2023-07-30
347,lorengau,-2.0226,147.2712,300.99,76,21,2.66,PG,2023-07-30
348,acajutla,13.5928,-89.8275,299.59,77,93,2.27,SV,2023-07-30
349,quelimane,-17.8786,36.8883,304.59,31,5,2.55,MZ,2023-07-30
350,cosala,24.4125,-106.6908,294.55,75,49,1.68,MX,2023-07-30
351,skara,58.3866,13.4384,291.9,72,47,4.02,SE,2023-07-30
352,chokurdakh,70.6333,147.9167,275.41,89,100,3.69,RU,2023-07-30
353,coos bay,43.3665,-124.2179,287.55,97,20,0.79,US,2023-07-30
354,bardiyah,31.7561,25.0865,303.36,54,0,8.76,LY,2023-07-30
355,lahaina,20.8783,-156.6825,298.6,77,11,4.02,US,2023-07-30
356,lima,-12.0432,-77.0282,291.98,86,35,1.61,PE,2023-07-30
357,thunder bay,48.4001,-89.3168,285.39,73,6,3.66,CA,2023-07-30
358,lagunas,-5.2269,-75.6753,293.18,98,28,0.65,PE,2023-07-30
359,faya,18.3851,42.4509,294.44,24,66,7.08,SA,2023-07-30
360,bonfim,3.0833,-59.95,297.68,86,22,0.91,BR,2023-07-30
361,egvekinot,66.3167,-179.1667,280.07,99,100,1.66,RU,2023-07-30
362,mogadishu,2.0371,45.3438,299.48,75,22,9.0,SO,2023-07-30
363,nemuro,43.3236,145.575,292.34,90,94,4.77,JP,2023-07-30
364,taltal,-25.4,-70.4833,288.25,79,35,1.86,CL,2023-07-30
365,la primavera,5.4906,-70.4092,296.12,91,83,2.13,CO,2023-07-30
366,cape coast,5.1053,-1.2466,299.32,81,90,3.02,GH,2023-07-30
367,sakakah,29.9697,40.2064,313.78,8,0,0.46,SA,2023-07-30
368,hailey,43.5196,-114.3153,292.53,48,0,3.6,US,2023-07-30
369,nanortalik,60.1432,-45.2371,280.05,77,34,0.93,GL,2023-07-30
370,pacific grove,36.6177,-121.9166,286.23,95,100,2.06,US,2023-07-30
371,neiafu,-18.65,-173.9833,296.09,68,64,7.4,TO,2023-07-30
372,padang,-0.9492,100.3543,302.18,87,53,2.28,ID,2023-07-30
373,keti bandar,24.1447,67.4497,302.94,75,85,9.86,PK,2023-07-30
374,dicabisagan,17.0818,122.4157,299.88,89,94,1.07,PH,2023-07-30
375,halifax,44.6453,-63.5724,290.09,95,100,1.34,CA,2023-07-30
376,boyolangu,-8.1181,111.8935,295.16,83,97,2.82,ID,2023-07-30
377,beringovskiy,63.05,179.3167,282.29,95,100,4.71,RU,2023-07-30
378,navahrudak,53.6,25.8333,292.27,85,97,4.18,BY,2023-07-30
379,salinas,36.6777,-121.6555,288.7,93,100,3.6,US,2023-07-30
380,ahuimanu,21.4447,-157.8378,298.26,81,59,1.34,US,2023-07-30
381,wasilla,61.5814,-149.4394,288.16,97,100,1.54,US,2023-07-30
382,zalantun,48.0,122.7167,298.18,78,66,3.13,CN,2023-07-30
383,yalta,44.5,34.1667,297.95,61,52,2.26,UA,2023-07-30
384,gushikawa,26.3544,127.8686,301.72,81,2,5.07,JP,2023-07-30
385,port moresby,-9.4431,147.1797,297.78,82,100,6.83,PG,2023-07-30
386,basco,20.4487,121.9702,301.79,76,100,2.22,PH,2023-07-30
387,auki,-8.7676,160.7034,297.62,98,100,1.85,SB,2023-07-30
388,berlevag,70.8578,29.0864,284.04,93,100,3.09,NO,2023-07-30
389,shengjin,41.8136,19.5939,306.17,59,52,4.13,AL,2023-07-30
390,mananjary,-21.2167,48.3333,297.74,53,0,3.76,MG,2023-07-30
391,calatayud,41.3535,-1.6432,302.16,38,4,2.61,ES,2023-07-30
392,la ronge,55.1001,-105.2842,284.94,74,2,1.74,CA,2023-07-30
393,kokstad,-30.5472,29.4241,285.97,27,2,6.18,ZA,2023-07-30
394,las juntas,19.4167,-104.7,296.06,86,5,1.37,MX,2023-07-30
395,lompoc,34.6391,-120.4579,294.7,100,100,1.54,US,2023-07-30
396,kavieng,-2.5744,150.7967,301.69,78,92,3.51,PG,2023-07-30
397,venta,56.2,22.7,291.13,90,100,3.25,LT,2023-07-30
398,tyler,32.3513,-95.3011,300.18,78,0,2.06,US,2023-07-30
399,yining,29.0361,114.5636,301.04,87,58,1.76,CN,2023-07-30
400,sobolevo,54.4299,31.8996,295.98,52,45,2.93,RU,2023-07-30
401,ayan,56.45,138.1667,286.36,96,35,0.59,RU,2023-07-30
402,yerbogachen,61.2767,108.0108,292.21,91,100,3.29,RU,2023-07-30
403,esperance,-33.8667,121.9,286.6,83,1,2.45,AU,2023-07-30
404,poso,-1.3959,120.7524,299.5,75,66,0.91,ID,2023-07-30
405,loandjili,-4.7561,11.8578,296.21,71,82,3.56,CG,2023-07-30
406,xining,36.6167,101.7667,296.08,50,16,1.97,CN,2023-07-30
407,wanxian,30.8039,108.3897,305.24,71,11,0.7,CN,2023-07-30
408,bismarck,46.8083,-100.7837,289.62,86,20,5.66,US,2023-07-30
409,moreira sales,-24.0622,-53.0069,289.96,77,99,4.01,BR,2023-07-30
410,marsh harbour,26.5412,-77.0636,301.71,77,22,3.29,BS,2023-07-30
411,rosarito,32.3333,-117.0333,293.29,85,22,1.32,MX,2023-07-30
412,fuerte olimpo,-21.0415,-57.8738,291.79,83,0,1.56,PY,2023-07-30
413,khandyga,62.6667,135.6,289.01,60,52,1.37,RU,2023-07-30
414,port hardy,50.6996,-127.4199,284.61,92,6,2.02,CA,2023-07-30
415,yendi,9.4427,-0.0099,301.62,71,88,2.88,GH,2023-07-30
416,rio de janeiro,-22.9028,-43.2075,291.53,84,100,1.42,BR,2023-07-30
417,qaqortoq,60.7167,-46.0333,281.21,71,29,1.01,GL,2023-07-30
418,susangerd,31.5608,48.1831,320.19,7,0,4.64,IR,2023-07-30
419,siyabuswa,-25.1132,29.0445,290.95,18,0,7.86,ZA,2023-07-30
420,kavaratti,10.5669,72.642,301.47,76,32,6.98,IN,2023-07-30
421,celestun,20.8667,-90.4,298.16,90,75,3.62,MX,2023-07-30
422,baykit,61.67,96.37,300.28,46,99,3.6,RU,2023-07-30
423,makokou,0.5738,12.8642,302.94,53,38,1.69,GA,2023-07-30
424,elliot,-31.3333,27.85,280.97,46,44,9.41,ZA,2023-07-30
425,pangnirtung,66.1451,-65.7125,280.19,80,92,0.89,CA,2023-07-30
426,conde,-7.2597,-34.9075,297.77,82,40,4.68,BR,2023-07-30
427,innisfail,-17.5333,146.0333,292.14,89,64,2.3,AU,2023-07-30
428,aswan,24.0934,32.907,313.95,8,4,5.9,EG,2023-07-30
429,businga,3.3333,20.8833,304.08,54,74,1.39,CD,2023-07-30
430,lavrentiya,65.5833,-171.0,280.99,97,100,3.6,RU,2023-07-30
431,chimoio,-19.1164,33.4833,305.97,16,100,0.71,MZ,2023-07-30
432,rongcheng,30.634,117.8517,300.8,87,94,1.51,CN,2023-07-30
433,tiznit,29.5833,-9.5,309.12,20,1,2.84,MA,2023-07-30
434,balabac,7.9868,117.0645,301.47,75,87,1.91,PH,2023-07-30
435,palmas,-10.2128,-48.3603,301.41,38,46,1.9,BR,2023-07-30
436,sri aman,1.2376,111.4621,299.77,72,96,1.12,MY,2023-07-30
437,kasongo,-4.45,26.6667,310.7,18,95,1.49,CD,2023-07-30
438,elizabeth city,36.2946,-76.2511,300.16,95,87,1.99,US,2023-07-30
439,arrecife,28.963,-13.5477,300.14,61,20,8.23,ES,2023-07-30
440,madang,-5.2246,145.7966,298.88,89,26,0.18,PG,2023-07-30
441,usinsk,65.9939,57.5281,301.79,35,70,3.48,RU,2023-07-30
442,bambanglipuro,-7.95,110.2833,296.39,78,78,4.66,ID,2023-07-30
443,comodoro rivadavia,-45.8667,-67.5,282.46,56,25,13.59,AR,2023-07-30
444,khuzdar,27.7384,66.6434,308.53,18,22,3.7,PK,2023-07-30
445,lasa,46.6166,10.7002,297.61,42,37,0.79,IT,2023-07-30
446,dunedin,-45.8742,170.5036,281.37,75,53,1.79,NZ,2023-07-30
447,pocone,-16.2567,-56.6228,293.7,68,0,0.51,BR,2023-07-30
448,haines junction,60.7522,-137.5108,285.87,75,53,1.24,CA,2023-07-30
449,mahon,39.8885,4.2658,303.46,66,20,3.6,ES,2023-07-30
450,tenenkou,14.4572,-4.9169,305.92,45,80,4.54,ML,2023-07-30
451,wick,58.4333,-3.0833,290.18,72,40,2.57,GB,2023-07-30
452,menongue,-14.6585,17.691,301.95,15,19,2.89,AO,2023-07-30
453,bethanien,-26.502,17.1583,283.71,29,3,4.63,NA,2023-07-30
454,okhotsk,59.3833,143.3,286.09,91,76,4.08,RU,2023-07-30
455,beaverlodge,55.2166,-119.4361,283.61,90,35,0.78,CA,2023-07-30
456,ucar,40.519,47.6542,297.13,31,56,2.38,AZ,2023-07-30
457,hofn,64.2539,-15.2082,283.16,87,75,1.54,IS,2023-07-30
458,pyapon,16.2833,95.6833,299.95,88,99,6.74,MM,2023-07-30
459,marktheidenfeld,49.8442,9.6039,294.44,72,91,5.81,DE,2023-07-30
460,dondukovskaya,44.8819,40.3627,303.11,29,6,3.38,RU,2023-07-30
461,san francisco,37.7749,-122.4194,288.41,91,4,4.02,US,2023-07-30
462,fallon,39.4735,-118.7774,291.99,20,74,2.73,US,2023-07-30
463,copiapo,-27.3667,-70.3333,287.93,69,5,0.78,CL,2023-07-30
464,tuatapere,-46.1333,167.6833,279.8,92,48,3.23,NZ,2023-07-30
465,yazoo city,32.8551,-90.4056,296.43,72,1,2.11,US,2023-07-30
466,bilibino,68.0546,166.4372,278.76,95,100,1.35,RU,2023-07-30
467,shitanjing,39.2342,106.3439,298.44,56,62,7.15,CN,2023-07-30
468,turayf,31.6725,38.6637,310.23,11,0,6.31,SA,2023-07-30
469,herat,34.5,62.0,308.45,9,0,13.4,AF,2023-07-30
470,batticaloa,7.7102,81.6924,302.4,73,91,6.47,LK,2023-07-30
471,shelbyville,35.4834,-86.4603,295.94,81,35,1.34,US,2023-07-30
472,treinta y tres,-33.2333,-54.3833,279.61,85,99,2.17,UY,2023-07-30
473,honiara,-9.4333,159.95,298.49,93,100,3.47,SB,2023-07-30
474,kaeo,-35.1,173.7833,280.25,90,19,1.58,NZ,2023-07-30
475,agadir,30.4202,-9.5982,298.4,48,6,2.77,MA,2023-07-30
476,burns lake,54.2331,-125.7533,284.06,98,100,1.39,CA,2023-07-30
477,kloulklubed,7.0419,134.2556,301.62,80,96,6.12,PW,2023-07-30
478,fuyu,45.1833,124.8167,299.17,80,21,3.05,CN,2023-07-30
479,sovkhoznyy,45.2946,38.1138,305.4,26,37,6.21,RU,2023-07-30
480,dingle,10.9995,122.6711,299.03,81,100,4.23,PH,2023-07-30
481,moyale,3.5167,39.0584,297.25,51,98,5.31,KE,2023-07-30
482,port macquarie,-31.4333,152.9167,290.31,68,81,2.57,AU,2023-07-30
483,macapa,0.0389,-51.0664,299.27,84,69,3.57,BR,2023-07-30
484,gamba,-2.65,10.0,297.28,71,98,3.57,GA,2023-07-30
485,dubrovka,53.6907,33.5071,296.92,41,0,2.95,RU,2023-07-30
486,saint-ambroise,48.5501,-71.3324,284.03,85,13,1.03,CA,2023-07-30
487,teknaf,20.8624,92.3058,301.66,85,92,7.0,BD,2023-07-30
488,moroni,-11.7022,43.2551,299.16,64,0,4.94,KM,2023-07-30
489,necochea,-38.5473,-58.7368,284.53,69,100,6.01,AR,2023-07-30
490,paita,-5.0892,-81.1144,293.53,87,38,4.73,PE,2023-07-30
491,laguna,38.421,-121.4238,294.06,61,0,3.6,US,2023-07-30
492,kurchum,48.5722,83.6542,304.22,25,1,1.53,KZ,2023-07-30
493,mutoko,-17.397,32.2268,302.99,15,85,1.58,ZW,2023-07-30
494,aquiraz,-3.9014,-38.3911,301.03,79,16,5.2,BR,2023-07-30
495,tessalit,20.1986,1.0114,311.93,23,30,4.61,ML,2023-07-30
496,golden,39.7555,-105.2211,293.6,60,0,2.06,US,2023-07-30
497,chumikan,54.7183,135.315,285.2,98,73,1.99,RU,2023-07-30
498,anupgarh,29.1911,73.2086,310.66,39,20,3.45,IN,2023-07-30
499,araouane,18.9048,-3.5265,310.55,30,4,6.23,ML,2023-07-30
500,shenjiamen,29.9576,122.298,300.84,75,97,6.01,CN,2023-07-30
501,xichang,27.8964,102.2634,300.01,74,24,1.2,CN,2023-07-30
502,kununurra,-15.7667,128.7333,298.14,65,98,0.0,AU,2023-07-30
503,te anau,-45.4167,167.7167,280.03,92,77,2.33,NZ,2023-07-30
504,cabedelo,-6.9811,-34.8339,298.55,81,47,4.77,BR,2023-07-30
505,husavik,66.0449,-17.3389,283.84,87,100,1.57,IS,2023-07-30
506,charlottesville,38.0293,-78.4767,295.7,93,0,0.89,US,2023-07-30
507,bougouni,11.417,-7.479,298.97,74,98,2.67,ML,2023-07-30
508,sosua,19.7667,-70.5167,299.95,83,44,3.47,DO,2023-07-30
509,cairns,-16.9167,145.7667,294.3,83,100,3.09,AU,2023-07-30
510,rio gallegos,-51.6226,-69.2181,272.76,81,40,7.48,AR,2023-07-30
511,ndele,8.4109,20.6473,304.2,57,84,2.15,CF,2023-07-30
512,skovorodino,53.9833,123.9167,296.9,66,52,0.52,RU,2023-07-30
513,kruisfontein,-34.0033,24.7314,281.91,86,85,10.35,ZA,2023-07-30
514,orkney,-26.9802,26.6727,284.56,31,51,6.14,ZA,2023-07-30
515,mabaruma,8.2,-59.7833,297.28,98,75,0.96,GY,2023-07-30
516,ambovombe,-25.1667,46.0833,298.67,41,27,2.65,MG,2023-07-30
517,zanjan,36.6736,48.4787,304.89,27,17,6.79,IR,2023-07-30
518,klyuchi,52.2667,79.1667,301.96,36,23,5.41,RU,2023-07-30
519,bowen,-20.0167,148.2333,292.98,79,13,6.05,AU,2023-07-30
520,constitucion,-35.3333,-72.4167,285.96,88,100,2.8,CL,2023-07-30
521,chambersburg,39.9376,-77.6611,292.29,90,0,0.89,US,2023-07-30
522,kingston,17.997,-76.7936,298.84,86,14,0.45,JM,2023-07-30
523,tahoua,14.8888,5.2692,307.64,39,42,5.16,NE,2023-07-30
524,oranjemund,-28.55,16.4333,286.48,55,0,3.68,NA,2023-07-30
525,palmer,42.1584,-72.3287,289.95,83,0,0.0,US,2023-07-30
526,roma,43.2128,-75.4557,288.52,96,100,0.0,US,2023-07-30
527,karaton,-6.3424,106.1045,297.95,79,90,1.09,ID,2023-07-30
528,alugan,12.2188,125.4808,301.09,76,100,3.68,PH,2023-07-30
529,karratha,-20.7377,116.8463,296.17,29,85,1.9,AU,2023-07-30
530,carauari,-4.8828,-66.8958,293.75,70,95,1.37,BR,2023-07-30
531,glendive,47.1053,-104.7125,291.94,88,0,4.63,US,2023-07-30
532,bay roberts,47.5999,-53.2648,292.01,94,100,1.94,CA,2023-07-30
533,naze,28.3667,129.4833,298.66,83,74,7.47,JP,2023-07-30
534,rock sound,24.9,-76.2,301.94,72,4,3.8,BS,2023-07-30
535,ashland,40.8167,-82.2665,288.3,97,7,0.78,US,2023-07-30
536,cadereyta,25.5833,-99.9833,296.25,82,0,0.69,MX,2023-07-30
537,cam ranh,11.9214,109.1591,302.13,74,75,5.14,VN,2023-07-30
538,carman,49.4992,-98.0016,284.76,50,41,3.05,CA,2023-07-30
539,ararangua,-28.9347,-49.4858,283.17,84,0,1.43,BR,2023-07-30
540,dukat,62.55,155.55,283.47,59,93,2.06,RU,2023-07-30
541,sassandra,4.95,-6.0833,299.95,77,89,2.98,CI,2023-07-30
542,santa maria,-29.6842,-53.8069,281.04,86,42,1.82,BR,2023-07-30
543,freeport,40.6576,-73.5832,293.31,75,40,6.17,US,2023-07-30
544,annau,37.8876,58.516,312.02,15,0,3.85,TM,2023-07-30
545,tyret pervaya,53.6703,102.3106,298.14,66,100,3.39,RU,2023-07-30
546,sainte-marie,-20.8968,55.5496,299.22,53,0,7.72,RE,2023-07-30
547,balikpapan,-1.2675,116.8289,300.7,83,40,1.54,ID,2023-07-30
548,jinchang,38.4953,102.1739,304.56,27,0,9.27,CN,2023-07-30
549,iquique,-20.2208,-70.1431,290.18,71,6,2.35,CL,2023-07-30
550,opuwo,-18.0607,13.84,297.32,15,4,3.11,NA,2023-07-30
551,mehamn,71.0357,27.8492,284.12,100,100,4.12,NO,2023-07-30
552,asfi,32.2994,-9.2372,300.18,57,0,7.0,MA,2023-07-30
553,chapais,49.7834,-74.8492,284.03,97,91,1.88,CA,2023-07-30
554,cassilandia,-19.1133,-51.7342,291.54,70,0,2.34,BR,2023-07-30
555,petropavlovsk-kamchatskiy,53.0452,158.6483,284.07,92,100,1.52,RU,2023-07-30
556,sisimiut,66.9395,-53.6735,278.5,87,100,2.72,GL,2023-07-30
557,gao,16.6362,1.637,310.13,28,43,5.8,ML,2023-07-30
558,lincoln,40.8,-96.667,294.34,89,15,0.45,US,2023-07-30
